ZipCode,City,State,MedianPrice,Latitude,Longitude,NearestStation,MetroDistanceMeters,DistanceToDC_Meters,Growth_1Y,Growth_3Y,Growth_5Y,Growth_10Y,Price_Volatility
20611,Bel Alton,MD,453322.6266653308,38.4550138,-76.9782444,Franconia-Springfield,38352.31,49481.13,0.05188650722705886,0.08192953065135042,0.3167306181256398,0.5542692056678666,0.021308103767558657
20689,Sunderland,MD,552958.2010675721,38.6629521,-76.5794051,Branch Ave,34137.83,46878.23,0.027185525911651028,0.06879477174994927,0.29426540556565955,0.48973714131926893,0.020454510694519833
20194,Reston,VA,775695.7047574642,38.9810592,-77.3407754,Reston Town Center,3565.41,28565.59,0.07567972137769644,0.18458448583475334,0.36111456084782456,0.45747148224287304,0.019603438141476203
22027,Dunn Loring,VA,1320904.4614293072,38.8948436,-77.2230654,Dunn Loring-Merrifield,1410.1,16876.94,0.0770517380750429,0.17057626272963905,0.3957285028413248,0.5857907954308662,0.0239836097065996
22201,Arlington,VA,701983.3795216355,38.8865657,-77.0952497,Clarendon,149.83,5956.36,0.03482383912021046,0.04035589496505748,0.06771572915244287,0.21467753962388825,0.015574810962276857
20105,Aldie,VA,1059592.4691371724,38.9531257,-77.6027422,Ashburn,11226.64,50082.01,0.09065573528610349,0.16326247422466647,0.5485877906065594,0.7692946973770252,0.028974194295094846
22172,Triangle,VA,529571.1491764424,38.5647266,-77.3714792,Franconia-Springfield,28481.48,47570.75,0.05630145457954363,0.13251892906695978,0.41847830098883415,0.6458231227155371,0.02063065981600855
22610,Bentonville,VA,429851.27706764307,38.824656,-78.2791425,Ashburn,71040.45,108628.12,0.10681903452941842,0.2390443680089207,0.5387645721957661,0.8467890074848922,0.02844754673998469
20032,Washington,DC,339759.8678792795,38.8337188,-77.0065907,Congress Heights,2052.68,7418.94,-0.03048488220731257,-0.03936091403844725,0.13428549658134895,1.0006100313511073,0.02834883192297866
20853,Rockville,MD,636599.3846974443,39.1017131,-77.0945621,Rockville,4880.36,23335.98,0.05938238839389685,0.12404799662413574,0.3179170769486852,0.5159088868651193,0.022455619721623295
21788,Thurmont,MD,383239.9623595397,39.5899788,-77.4138613,Shady Grove,56491.13,83778.38,0.07373464547683767,0.16165811877531433,0.4292560474187678,0.694374147882133,0.016694238272342156
21703,Frederick,MD,414677.875071699,39.3670313,-77.4734816,Shady Grove,38232.3,64747.4,0.03845440116036541,0.14153412765090448,0.4215664523588262,0.6431535531970435,0.017458980142324478
20817,Bethesda,MD,1287573.278586003,38.9972294,-77.151871,Medical Center,4729.56,15348.28,0.0627778646983874,0.13092287617458626,0.3474818288555702,0.41224506754898704,0.025097874431395936
22310,Rose Hill,VA,673068.0569744637,38.7840711,-77.1228169,Van Dorn Street,1775.83,15120.71,0.05924755024311368,0.13768219753445526,0.3180470579304579,0.5334056695181008,0.021798859776942407
22308,Fort Hunt,VA,958078.5189684614,38.7327286,-77.0580885,Huntington,6957.33,18593.47,0.05651327168264135,0.11963196924035276,0.3344370597985816,0.47494988666474175,0.026110872684062956
21757,Keymar,MD,447603.1175903279,39.5915743,-77.2681688,Shady Grove,53202.6,79812.14,0.06838045572043346,0.14144453229462858,0.4061246218925164,0.6299254483032729,0.020485465467424517
20748,Temple Hills,MD,363233.2022498434,38.8149015,-76.9334361,Branch Ave,2283.43,12377.06,0.03688204291714002,0.059593057967759065,0.2818156934652261,0.7860324586196118,0.021388177779970492
22630,Front Royal,VA,377785.51471232733,38.9302099,-78.1748776,Ashburn,59664.28,99281.25,0.07349525673551445,0.18757853112508607,0.5180386139580979,0.9108402301141455,0.02247795534360248
20781,Edmonston,MD,434139.4890156525,38.9528597,-76.9462962,Hyattsville Crossing,1623.81,9320.78,0.02792914772124385,0.06142793317963315,0.2669635388473469,0.7564334623892952,0.02130528165317049
22735,Reva,VA,422395.21286367014,38.4768647,-78.1742575,Washington Dulles International Airport,82489.39,109964.52,0.0657908609010692,0.16676471311421082,0.517972780152668,0.9346824491123351,0.025086920284806837
20735,Clinton,MD,431103.7561647277,38.7502335,-76.9051652,Branch Ave,8556.83,19608.58,0.021932426245180752,0.06259741074955116,0.3238112826613078,0.6976561926039694,0.020842646729266237
20191,Reston,VA,633817.0589880521,38.9346448,-77.3517016,Wiehle-Reston East,1765.67,28287.12,0.07003164566885785,0.17561173386454831,0.33987321239750556,0.49251597940119407,0.020436930221346593
22408,Fredericksburg,VA,431276.3781296558,38.2189398,-77.4440229,Franconia-Springfield,65389.72,83752.14,0.05177411503281601,0.15350411589972993,0.47955874558840755,0.7675714042240069,0.018998384751941974
20623,Cheltenham,MD,506060.5194475799,38.7413365,-76.8422333,Branch Ave,11288.54,23747.06,0.018498968487294414,0.06464637789765078,0.33102240934471744,0.6366144080337487,0.019687660353325667
20708,Laurel,MD,478580.6084801248,39.0573653,-76.8257842,Greenbelt,9009.69,24873.12,0.03785655091896508,0.10112209725617748,0.3336870833308343,0.6564930228029701,0.01783490370008741
22728,Midland,VA,570547.7302107328,38.5966202,-77.6752625,Washington Dulles International Airport,44526.3,65384.4,0.07184820434691463,0.16443811773215142,0.4309799778329979,0.7791733141614943,0.02439592177363225
20181,Nokesville,VA,771668.5048920683,38.6891263,-77.5696104,Washington Dulles International Airport,31462.7,52378.17,0.0716158109322464,0.154621833762083,0.46708357105662884,0.6972312324472789,0.025097349956760523
20664,Newburg,MD,403428.1746602791,38.3544851,-76.9253951,Franconia-Springfield,50428.49,61124.4,0.05385880403258676,0.09310068120274771,0.32878729206838175,0.5141558644049845,0.02149916915639126
20152,Chantilly,VA,841837.3820823216,38.9191452,-77.502426,Washington Dulles International Airport,6215.85,41106.98,0.06644422614918967,0.15123586409693057,0.46726588452228346,0.6915165052303132,0.02460697163601797
20136,Bristow,VA,729348.4304127136,38.7383253,-77.554552,Washington Dulles International Airport,25876.59,48955.98,0.07499049870139031,0.17285740364833527,0.5119647011429023,0.7535255365792043,0.023111080063504114
22657,Strasburg,VA,327242.8646650811,39.0026216,-78.3761115,Ashburn,76436.23,117144.2,0.060926433602747194,0.19142576806534845,0.514350377240768,0.8759497968799329,0.019689247258265322
20676,Port Republic,MD,479229.70055963,38.4932243,-76.5412735,Branch Ave,49135.79,61756.06,0.05442837224413442,0.09358280351100771,0.31256832583389993,0.4934853743033628,0.01841706834018867
22079,Lorton,VA,674261.8864573725,38.6746055,-77.2097393,Franconia-Springfield,10778.99,29437.71,0.05445344461067733,0.13928442477888803,0.33192440718137406,0.5242728375431894,0.017745583611480455
20815,Chevy Chase,MD,1337825.4852937171,38.9833856,-77.0792875,Bethesda,1312.71,10445.35,0.05993622957032503,0.09780506687886265,0.3254905740831175,0.3890619658856748,0.024733145396377904
20736,Owings,MD,588868.9646214504,38.6890747,-76.627765,Branch Ave,29037.63,41773.56,0.024530623531257036,0.07975658196990003,0.3202474192912759,0.4967636867051499,0.019732741374537087
20901,Silver Spring,MD,593160.1887826732,39.0202657,-77.0080206,Forest Glen,3065.77,13672.3,0.05010328049286969,0.0772960740292372,0.2647418613370594,0.4403014570651039,0.022666785600112236
20678,Prince Frederick,MD,447724.51653309754,38.5228202,-76.60135,Branch Ave,43264.88,55805.47,0.04183813045837429,0.06509604273730552,0.26880393805191727,0.4656980723006804,0.01863948293304904
20886,Montgomery Village,MD,387410.6789371904,39.1874145,-77.2071361,Shady Grove,8351.32,35672.82,0.04770934568224616,0.13426991853512812,0.3321731760252489,0.6045274679864366,0.017187389872955382
21793,Walkersville,MD,455128.0229649427,39.4915768,-77.3466138,Shady Grove,44194.79,71451.42,0.05300525261351184,0.16495091532554917,0.4571197582218725,0.7206390017267976,0.017671222654735134
20842,Barnesville,MD,738300.6038841297,39.1998786,-77.4152652,Ashburn,22616.81,47352.98,0.05833284026138745,0.07657214589994,0.3143723235694956,0.45830577791425603,0.024294179422300353
20877,Gaithersburg,MD,483104.4806369084,39.1397032,-77.185238,Shady Grove,2821.3,30080.08,0.05284669746327351,0.1159594516838474,0.3084289977738482,0.542255424873299,0.016656688293323632
20658,Marbury,MD,350292.7966853783,38.5605819,-77.1604193,Franconia-Springfield,22867.37,39267.82,0.03800034637227915,0.10328020288409878,0.3331803175454869,0.6196908259524962,0.02190365034670287
22193,Woodbridge,VA,499386.33864281,38.643671,-77.3486306,Franconia-Springfield,20710.54,39671.69,0.06693767795390397,0.14989015399774747,0.41039149682972764,0.7525444411325192,0.020440615648958316
20137,Broad Run,VA,760907.1322135535,38.8067314,-77.7224633,Washington Dulles International Airport,28956.84,60984.04,0.062214798815859694,0.16302296935595403,0.4800374824197987,0.7464571800782607,0.02754770520721133
20743,Capitol Heights,MD,331537.74350841896,38.88423,-76.8933168,Addison Road-Seat Pleasant,277.12,11769.53,0.030956946626253534,0.05301564367453517,0.30298381824742576,0.9576268649976971,0.021864782231613852
22101,McLean,VA,1606340.8244520251,38.9402358,-77.1648991,McLean,4289.72,12720.39,0.09497642461223715,0.201697665826989,0.4185301836494297,0.5237445996876849,0.026305805125336253
22209,Arlington,VA,706791.3057654016,38.8950228,-77.0754631,Rosslyn,388.05,4115.12,0.03506842895694518,0.02174755530777767,0.05859600823153416,0.19289031727802125,0.013511443043485099
20117,Middleburg,VA,1127819.1179050484,38.9988218,-77.7339374,Ashburn,20958.66,62053.87,0.08049622281136716,0.14986271995074804,0.5556864421619153,0.7315628811171743,0.03450977839370301
20740,College Park,MD,437483.5384898924,39.0028665,-76.9316516,Greenbelt,1974.52,14308.94,0.047221782406701135,0.08968472366659523,0.2882203346430958,0.6505319981198049,0.01980140460019218
20601,Waldorf,MD,430373.8005585692,38.613372,-76.8516122,Branch Ave,24327.17,35185.25,0.039617523575565694,0.07524026219246094,0.3485816183115177,0.7042899072367155,0.01980535068544369
20170,Herndon,VA,699450.6569894747,38.9800388,-77.3809009,Herndon,3048.99,31838.22,0.07015379200338674,0.1757508320237981,0.39783572875237727,0.617107082861299,0.022484139514524867
20007,Washington,DC,1240408.572783155,38.9143373,-77.0793125,Rosslyn,2086.59,4776.67,0.02712864495059664,0.04196803319787864,0.1816846826379696,0.34682842229615435,0.02104298736230112
20841,Germantown,MD,847137.8715242507,39.1918529,-77.3275214,Shady Grove,16146.8,41642.32,0.04162589757361454,0.10661385075568401,0.3451907826261827,0.4660835950419563,0.022073226572844832
22733,Rapidan,VA,365102.9797436912,38.3335882,-78.0457239,Washington Dulles International Airport,86486.11,108441.79,0.06168971076821629,0.16686803130698954,0.4905091716824538,0.7781126291663638,0.028442001862146533
20785,Greater Landover,MD,343249.59675787366,38.9182912,-76.8819478,Landover,1955.61,12839.79,0.035722045380800586,0.05380346329409551,0.26006572306933523,0.8790579207028063,0.019205891977312782
20745,Forest Heights,MD,360176.6383021365,38.8068092,-76.9958587,Southern Avenue,4193.5,10549.76,0.02995588849129452,0.03930032859120038,0.25253419939196375,0.8101845609332405,0.020487901582268007
22044,Falls Church,VA,575195.1410328051,38.8620439,-77.1543717,East Falls Church,2657.24,11650.17,0.04917060417948065,0.16669959365870474,0.3371457844820727,0.5405287995096193,0.022141576931222238
20677,Port Tobacco,MD,590903.358026025,38.4993293,-77.0349907,Franconia-Springfield,31862.23,44367.88,0.055045860128536385,0.08120656714554884,0.35802350955667855,0.5050835453136389,0.021180420698138667
20164,Sterling,VA,589406.2627276505,39.0132988,-77.3950669,Innovation Center,6098.26,34210.73,0.07794764227259901,0.18483778336596116,0.41472896275555104,0.7480811369178697,0.020799836711141287
22301,Alexandria,VA,1022627.4133348736,38.8198527,-77.0596448,Braddock Road,825.78,9140.91,0.04643243550598114,0.07613659460342677,0.22950460730207262,0.4580556039340029,0.02182940240197764
20721,Bowie,MD,584356.9504987848,38.9152223,-76.7851289,Downtown Largo,5414.74,21107.83,0.04182877646077778,0.07943011968893257,0.3459490197065051,0.649432130091786,0.019977754849201695
20198,The Plains,VA,897738.6115554533,38.8841105,-77.7447608,Ashburn,25712.31,62045.13,0.0369261501337507,0.10033728759895483,0.4361946476744513,0.605669156926813,0.02709763894163821
21702,Frederick,MD,448909.28164316464,39.4798268,-77.4559871,Shady Grove,47220.26,74438.57,0.044942321883879754,0.15708734215628245,0.4684092462450214,0.7005984917108071,0.01920027996413615
20008,Washington,DC,892732.3295210801,38.9362376,-77.0599814,Cleveland Park,228.41,5039.94,0.016648832863771557,0.0043756372872555535,0.1311287635256037,0.285881103811409,0.021886559929935868
20613,Brandywine,MD,509074.7980211435,38.6712221,-76.805307,Branch Ave,19642.94,31788.13,0.009222063615112056,0.051869880905306386,0.32818615783313954,0.5889363795126284,0.0202787331268363
22713,Boston,VA,505536.3909460154,38.5607163,-78.1188163,Washington Dulles International Airport,72880.25,101786.96,0.06472812469672709,0.1686872184405608,0.48338328099243016,0.8265738484925617,0.024752819608361207
22015,Burke,VA,727917.4306171028,38.7878145,-77.278973,Franconia-Springfield,9850.46,24960.18,0.06230367853928647,0.1712603145442872,0.36781704476960625,0.5847118459896141,0.024371633016916916
20112,Manassas,VA,725448.7970099081,38.661923,-77.432845,Franconia-Springfield,25673.14,43838.03,0.06727849055316328,0.1572485643673686,0.45781474299062386,0.6615646367149217,0.02239053940907848
22303,Huntington,VA,548175.1773808376,38.7943803,-77.0788367,Huntington,312.24,12362.88,0.06036623398329109,0.16103977128504576,0.31462204332576327,0.6200933092044704,0.01849139340280693
20818,Cabin John,MD,1268932.2674607318,38.9739384,-77.1621429,Bethesda,5964.97,14323.03,0.07219512526366381,0.1310607624579348,0.33508880901504384,0.3901839381794615,0.02665669021218569
20861,Ashton,MD,955702.793508815,39.1497466,-76.9995914,Glenmont,10834.52,28067.5,0.05559197265173975,0.10961859024085031,0.32524195110651455,0.4391941393351872,0.022575008573699235
21769,Middletown,MD,554664.947990578,39.4424468,-77.5689117,Ashburn,49065.2,76383.78,0.06940725859842081,0.14650423913468882,0.4345084502464735,0.6222649636585056,0.020080497381405278
22041,Falls Church,VA,445639.1895721673,38.8447255,-77.1431965,East Falls Church,4729.35,11609.33,0.03662406289259496,0.1115247161811778,0.26662909534859947,0.43067176007579633,0.016372154372365586
20109,Manassas,VA,445157.0562950152,38.7936407,-77.5310242,Washington Dulles International Airport,19404.51,45082.55,0.06469869509127923,0.1888727242804141,0.4579634283909143,0.8234089265846409,0.018216510897586566
20851,Rockville,MD,537226.1849358104,39.0790818,-77.1218577,Twinbrook,1860.6,21673.56,0.0616913188315623,0.14479517839187211,0.32223670649955577,0.5993682514188358,0.021954858161343526
20860,Sandy Spring,MD,813022.9242118654,39.1423662,-77.0254121,Glenmont,9287.94,27139.58,0.053630960812289685,0.10213434816501907,0.3188449401694411,0.4298023596295334,0.02026669363207406
21701,Frederick,MD,443309.50787154975,39.4435505,-77.3329398,Shady Grove,38793.47,66078.85,0.037198249701601106,0.15174146087805845,0.4358614994218772,0.6468742132534032,0.018509150077360904
20814,Bethesda,MD,887875.0820297388,39.0049887,-77.10149,Medical Center,669.58,13453.82,0.06068134973243527,0.06487262306785702,0.2273124782485802,0.2379892719861823,0.024035889589565023
20024,Washington,DC,403766.01579339773,38.8760098,-77.0253225,Waterfront,678.35,2490.51,-0.028944086096533688,-0.10220932042988463,-0.030300571141312967,0.30280728700391246,0.01657005397086883
20675,Pomfret,MD,467843.3387933336,38.5809317,-77.0224633,Huntington,24114.53,35293.46,0.05464001719096181,0.10347143096359886,0.37718324083821725,0.6457868364306273,0.02173460713761939
20175,Leesburg,VA,814477.238829675,39.0651671,-77.6041178,Ashburn,11785.24,53134.09,0.06924879537683236,0.16802115489286062,0.4630645362085927,0.7186503657755384,0.023208618093132478
22315,Alexandria,VA,676354.3168321374,38.7583365,-77.1511915,Franconia-Springfield,1755.25,18865.81,0.05988267119452088,0.15343599405313224,0.3232857790164343,0.5232736191393756,0.019965854618674932
20872,Damascus,MD,549247.828867461,39.294465,-77.2161249,Shady Grove,19914.58,46944.54,0.05858737889905451,0.1226028308442577,0.33501705755182226,0.5384672154227504,0.019361412880649617
22620,Boyce,VA,532256.9059501566,39.0681889,-78.0322771,Ashburn,47224.44,88827.65,0.0758235556299377,0.16187742906161418,0.5134007415930455,0.8218532646951716,0.026624127085836422
20747,District Heights,MD,339580.5213052728,38.8549964,-76.8833074,Addison Road-Seat Pleasant,3637.38,13427.12,0.026275260353368617,0.042301809850281764,0.26263540047938333,0.8230530876901825,0.018891625544925905
20879,Gaithersburg,MD,446428.47194668854,39.1680411,-77.1753857,Shady Grove,5437.47,32579.95,0.046254373936200334,0.10859916269447911,0.2994658139709418,0.5629455377357141,0.018132844763851762
21774,New Market,MD,599477.1586449892,39.4077665,-77.2684216,Shady Grove,33235.05,60320.85,0.05399951644016288,0.12880642039182544,0.4175507209644129,0.6161011014437718,0.01967939753024134
20722,Cottage City,MD,372585.5181961592,38.9345578,-76.9506002,West Hyattsville,2812.9,7823.55,0.023842778675174255,0.03980877006961267,0.22044696900822688,0.8250427418848986,0.023614478856112436
22534,Partlow,VA,381285.5794193013,38.0775785,-77.6728586,Franconia-Springfield,88261.75,107133.04,0.04691063097695304,0.19585953759243535,0.5368089918593645,1.061068130547812,0.03297175107471865
20120,Centreville,VA,691346.6370009243,38.8564011,-77.4763711,Washington Dulles International Airport,11317.5,39083.03,0.06678807976029696,0.16959632709163552,0.38917224868317724,0.6005852477727075,0.021072271016580758
22152,Springfield,VA,699661.653888065,38.7744932,-77.2320292,Franconia-Springfield,5560.22,22394.65,0.06401476846862522,0.18075326422349142,0.3799948071362722,0.6325242198359841,0.02367705072317954
20005,Washington,DC,520911.52826701687,38.9046738,-77.0315776,McPherson Square,414.28,769.7,-0.01190705856920664,-0.030623848848596914,-0.037673302320366246,0.0346491662872788,0.012158558009154764
20662,Nanjemoy,MD,385382.3781515288,38.4284708,-77.2053396,Franconia-Springfield,37679.94,54462.26,0.047451737765541166,0.127457686607956,0.3587399225553381,0.6527756525650621,0.021966496238722086
22153,Springfield,VA,753051.192644995,38.7449685,-77.23564,Franconia-Springfield,6255.5,24778.47,0.06358278039740414,0.1674819992594054,0.37789026087471883,0.5932210563944539,0.02455656904857719
22191,Woodbridge,VA,481956.4546092795,38.6229139,-77.2629379,Franconia-Springfield,17898.34,36773.74,0.05846284443447896,0.14369629394312072,0.38949488906757856,0.6667825960060131,0.01754012055256849
21754,Ijamsville,MD,677246.4663015885,39.3321236,-77.3162147,Shady Grove,26965.45,54266.2,0.05981405637473896,0.12614064661446756,0.4034837804674119,0.5705309242924833,0.02063432509223879
20158,Hamilton,VA,910561.566057175,39.1396576,-77.6579887,Ashburn,20729.88,60674.91,0.07135311170779426,0.19332461381597613,0.5298047692912156,0.8056075360237009,0.024259187412591914
20180,Lovettsville,VA,752423.1055608304,39.2685742,-77.6379383,Ashburn,31883.46,66826.32,0.06530818379734887,0.1426616205782251,0.43185171569082376,0.7023274535871606,0.02420906291164597
21791,Union Bridge,MD,434349.94460178446,39.5332554,-77.1881428,Shady Grove,46015.4,71937.13,0.056308469683153166,0.13789457087361337,0.3852563664266069,0.613981855648199,0.017633299916632972
20130,Bluemont,VA,631945.1745734601,39.036981,-77.9493189,Ashburn,39703.98,81122.01,0.07271745725066942,0.12318299555366197,0.45488015448145586,0.5615975255470707,0.028538390969488115
20111,Manassas,VA,512193.22304332774,38.7489677,-77.4278735,Vienna/Fairfax-GMU,19705.24,38407.44,0.06322576998418422,0.16580120995846329,0.4279607178064385,0.7412506513139636,0.019809785350349676
22712,Bealeton,VA,473952.6164370637,38.5640083,-77.7572465,Washington Dulles International Airport,51147.47,73361.94,0.07188186616861932,0.1583447648236683,0.43719834307250016,0.861266736141339,0.020677855230993466
20036,Washington,DC,378614.3084206867,38.9070167,-77.0415693,Dupont Circle,328.13,1515.75,-0.009665614805858489,0.0027144443623549996,-0.0032429961271379973,0.10463951650499727,0.01240764882100074
20839,Dickerson,MD,646801.9649808648,39.1883067,-77.4349705,Ashburn,20928.56,47692.18,0.03179106569372967,0.02270760627570713,,,0.019090182949716226
22309,Mount Vernon,VA,585529.9159280648,38.7205267,-77.1066682,Franconia-Springfield,7399.04,20907.24,0.058782980864124576,0.15685433627186812,0.3450425665912709,0.609761868453586,0.021653545823469872
20769,Glenn Dale,MD,626672.7356333802,38.9966968,-76.81866,New Carrollton,7147.88,21160.06,0.039919602583474545,0.08572191461942308,0.3691228683734503,0.6328155190852285,0.02001596329155071
21777,Point of Rocks,MD,512340.9377796532,39.2713103,-77.5193762,Ashburn,29678.17,59314.94,0.048862713043279216,0.12151077489653919,0.4033874354486732,0.5903330958718414,0.018359789077953704
20837,Poolesville,MD,719859.0284143174,39.116506,-77.407115,Ashburn,14355.6,40757.77,0.06150338018257729,0.11625200570706364,0.3361273037661195,0.5148051596164763,0.021308547840779336
22405,Fredericksburg,VA,458130.8193346919,38.3134876,-77.4038475,Franconia-Springfield,54324.7,72764.82,0.06411668836738596,0.16031089132906431,0.4636636093499963,0.7709898951261354,0.018902871164289115
20115,Marshall,VA,667801.294121733,38.8099467,-77.9118412,Ashburn,42360.23,77153.29,0.06589199234674128,0.16444071331983157,0.4513860487274681,0.6372699507054372,0.02633422543990639
21773,Myersville,MD,533091.11172953,39.5425752,-77.5517126,Shady Grove,57588.99,84656.93,0.07217661993058049,0.16297544026525954,0.4616598094168312,0.6619140931188682,0.020807901694591277
22732,Aroda,VA,356292.9694131261,38.3146304,-78.189884,Washington Dulles International Airport,96089.87,120012.38,0.08343026356587338,0.16999359153268295,0.5413452701035246,0.8562150395477693,0.02764299224213758
22314,Alexandria,VA,848302.5506770591,38.8068603,-77.0564394,King St-Old Town,407.41,10459.93,0.04227087434608468,0.05135256891742543,0.17785189868730533,0.35670085447649236,0.017920175562689458
23024,Bumpass,VA,414472.63535843085,37.9277524,-77.7792737,Franconia-Springfield,107352.97,126213.56,0.06875136937295728,0.19945678078056214,0.5215750666731238,0.9104260948584891,0.019813954769395237
21770,Monrovia,MD,661316.370030236,39.3501956,-77.2562344,Shady Grove,26796.76,53964.41,0.06323605472157962,0.1275940818823256,0.4163769665456134,0.5936087068265634,0.019626134892904046
22743,Etlan,VA,338960.02303909155,38.5393119,-78.3809697,Ashburn,92897.61,123971.93,0.08372726527544004,0.18659936492276705,0.6458478743756969,1.0029948733489684,0.03414597798431736
22031,Fairfax,VA,760542.787492518,38.8595311,-77.2585471,Vienna/Fairfax-GMU,2312.58,20408.69,0.05892210396155284,0.12483451618820282,0.27145767155254424,0.41303877347287027,0.018836725200800243
22042,Falls Church,VA,745039.7741741311,38.8650238,-77.197125,Dunn Loring-Merrifield,3403.98,15091.44,0.06643681483218207,0.17614226160564334,0.35317841189482135,0.5832744614036337,0.024425624488541128
22719,Etlan,VA,469375.58077759616,38.5348895,-78.2812517,Washington Dulles International Airport,86083.9,115988.74,0.06440603962583509,0.13729200145969797,0.5567782165768468,0.8969385959866485,0.034310412654653386
21758,Knoxville,MD,443535.1195359006,39.3532044,-77.6568162,Ashburn,41226.77,74160.97,0.06127179045069841,0.12898123708517154,0.4174822318652148,0.6620917825957268,0.020398583277467113
20141,Round Hill,VA,836206.2874162864,39.1123904,-77.7907039,Ashburn,28444.29,70063.16,0.07766884832855085,0.15674448812395772,0.483434784549428,0.7232844061706664,0.023318286689136873
20617,Bryantown,MD,532969.3559997963,38.5484588,-76.858802,Branch Ave,31315.81,41581.0,0.0469762747069392,0.07978243953081218,0.31941748669986686,0.488282292369517,0.019593535532836104
21762,Union Bridge,MD,319115.83371367445,39.4808299,-77.2470888,Shady Grove,40760.46,67467.48,0.03261029791836592,0.12266438418614227,,,0.021108742233410843
20622,Mechanicsville,MD,488311.6028133097,38.4185913,-76.8744123,Huntington,45230.01,54985.39,0.058587584406794,0.07817040524044934,0.31460882037053517,0.5116181879856744,0.02133143250627111
20637,Hughesville,MD,574735.3927723928,38.5251084,-76.7559481,Branch Ave,36202.97,47745.31,0.051262190677197804,0.08655165883456592,0.3752933162634422,0.5800672616439647,0.020989209817680005
22643,Markham,VA,770772.8163707132,38.8855678,-77.9833385,Ashburn,44566.08,82684.4,0.04213983491802864,0.07252009099286821,0.3438217353436584,0.48292986952618455,0.03308029376074884
22623,Chester Gap,VA,315865.34362604795,38.8489267,-78.1406635,Ashburn,58781.63,96469.17,0.07711885864063599,0.25155061038893695,0.6100575474321758,0.9787488377623256,0.022351240118926117
21755,Jefferson,MD,563682.5006974131,39.3596545,-77.5681276,Ashburn,39953.46,69292.52,0.058926591137479487,0.14377779465527185,0.4330272746553662,0.6637381998949179,0.02020827161205127
21727,Emmitsburg,MD,356971.1734305594,39.6886352,-77.3292336,Shady Grove,64805.84,91621.89,0.07697693602963675,0.15584820830951537,0.3924230913125202,0.613334614368736,0.017738446410722586
20612,Hughesville,MD,333531.62910594436,38.5050595,-76.6772096,Branch Ave,41200.45,53283.95,0.02120068450505433,0.036936600702113874,,,0.010302568451374283
22639,Hume,VA,861519.692285637,38.8137793,-78.0190643,Ashburn,50367.04,86320.66,0.05056308352805936,0.1089987559688288,0.4558578494385117,0.6451618254050422,0.03127443035730837
22722,Haywood,VA,377616.3838976615,38.4662617,-78.2270685,Washington Dulles International Airport,86777.9,114623.92,0.07862044994459384,0.15936655333502528,0.5515454225566644,0.9075138361249256,0.027405312478235213
20616,Bryans Road,MD,412915.9850106628,38.6636629,-77.0974801,Franconia-Springfield,12965.45,26774.95,0.03314653079248701,0.0977707121188054,0.37028362189542036,0.7154383764748028,0.018634781768366453
21716,Brunswick,MD,391332.03004108666,39.314453,-77.6200192,Ashburn,36118.82,68918.3,0.04461565721286626,0.14783456662939828,0.42376796227698793,0.7832810119709808,0.017712974166543046
20629,Dowell,MD,447909.9745573376,38.3365819,-76.4504042,Branch Ave,67708.69,80126.77,0.045876126666136094,0.059171797991425086,0.36926277860359014,0.4543570278858424,0.027154507453855836
22731,Aroda,VA,370888.2518973157,38.3365642,-78.257331,Washington Dulles International Airport,98382.41,123719.21,0.0762213786179452,0.19456145560790958,0.584390148118679,,0.029642363085504886
20754,Dunkirk,MD,611037.6049679666,38.7307104,-76.6466392,Branch Ave,25382.64,37941.76,0.032844146068731914,0.07985698208189065,0.30515364184496496,0.47254824049163835,0.020506423096860817
22134,Quantico,VA,328773.9316124258,38.521753,-77.3850278,Franconia-Springfield,33031.02,52079.34,0.05483870592762418,0.12816239236746055,0.43097062757540866,0.9706167459300815,0.02029294639626311
20838,Barnesville,MD,704836.6145761642,39.2181006,-77.3908307,Shady Grove,22331.9,47385.75,0.034193043901869426,0.05021187135002918,,,0.020162341675267384
22033,Fairfax,VA,708995.0894364341,38.8752153,-77.3847008,Herndon,8629.46,30971.46,0.06939234945307647,0.17747982583141608,0.37527712395571183,0.5890249465051267,0.021741720845445477
20833,Brookeville,MD,812237.4014808334,39.2071747,-77.0546701,Shady Grove,13590.51,34421.52,0.052915430375324445,0.10082699202068263,0.3124651035866467,0.43382867845434825,0.02229057182641778
20645,Issue,MD,501912.3671026239,38.2945002,-76.9147517,Franconia-Springfield,56908.38,67858.56,0.042868243749920994,0.08561574144724013,0.3394389830003809,0.5129230419195047,0.019429000279545344
20705,Beltsville,MD,454569.5977169212,39.0494232,-76.9003618,Greenbelt,4372.94,20107.29,0.03786673964618441,0.10960832738585843,0.3213324007825912,0.6866885407610142,0.01812188783801096
20037,Washington,DC,570122.6893438926,38.8989176,-77.0554464,Foggy Bottom-GWU,485.16,2367.59,0.004414398003854663,-0.034767257432711904,0.0024757768683683406,0.09168841277272989,0.011730066164208868
20165,Sterling,VA,736611.5429082565,39.0579402,-77.3926944,Loudoun Gateway,9391.06,36171.21,0.06904349282796352,0.15818890332062355,0.4039175220126678,0.5851257275096726,0.021638833309622792
22307,Alexandria,VA,730456.336666572,38.7719818,-77.0572726,Huntington,2889.63,14271.76,0.06396468870067361,0.16790779096994887,0.35944968128933885,0.5872023395829878,0.024227194493481433
22642,Linden,VA,375831.1397034789,38.9471464,-78.0119047,Ashburn,45444.6,85280.73,0.07944318122263892,0.19640530451917185,0.5395875153894567,0.9814950777430025,0.022253187677084646
20862,Brinklow,MD,917994.0929040202,39.1812299,-77.0188057,Glenmont,13620.82,31470.27,0.05741957483699658,0.11442909444806691,,,0.016326000408395915
22207,Arlington,VA,1360496.673492187,38.9066646,-77.1242382,Ballston-MU,2937.49,8371.07,0.08063735550460797,0.1308153419544352,0.3008129495044486,0.5202016464459209,0.02759106433044846
20695,Waldorf,MD,491507.3637211322,38.5914917,-76.9707842,Huntington,24259.85,34476.07,0.023748758758407332,0.06982730961921078,0.3435437933235323,0.5901999521534339,0.019165164912547654
22737,Rixeyville,VA,486379.0939874028,38.5805082,-78.0150561,Washington Dulles International Airport,64474.12,92607.19,0.07840135956448675,0.20960064967645364,0.5494319770657107,0.981865126337716,0.022280971579226202
22726,Richardsville,VA,425045.2733369236,38.4024576,-77.8206605,Washington Dulles International Airport,69506.67,88186.39,0.05617063936347965,0.1963490836015668,0.5164670744351751,0.8453756782712668,0.02471501761899164
22556,Stafford,VA,518239.2958275541,38.4720527,-77.5109438,Franconia-Springfield,44191.03,63268.29,0.060365122944426405,0.14262259986669343,0.4536209173732158,0.7054421506947919,0.020919489958487716
20119,Catlett,VA,617173.8572296527,38.6103802,-77.6220058,Washington Dulles International Airport,41257.81,60640.08,0.06682016850554663,0.15342672101826688,0.42695978245033694,0.596285625565826,0.02602088015531419
22306,Alexandria,VA,634233.8186878954,38.7557483,-77.0977828,Huntington,4662.57,16961.83,0.05336193556724999,0.13633564566570336,0.32409211075248623,0.5492455418850921,0.02089012015501076
20129,Waterford,VA,1191205.316187424,39.1720181,-77.6012544,Ashburn,20818.33,58111.96,0.07703945658800843,0.23235399094156195,0.6141452851791926,0.8537422977363222,0.025397916968041463
22032,Fairfax,VA,842495.9690982631,38.8190464,-77.2903011,Vienna/Fairfax-GMU,6720.09,24353.79,0.07141247679005347,0.158980944947438,0.3670522506907338,0.56249989720827,0.02590061238994474
20640,Indian Head,MD,337307.68458777067,38.5254351,-77.2137001,Franconia-Springfield,27046.55,44478.59,0.050732825612195484,0.15668346363295507,0.4433786818573213,0.9053783192622773,0.01769680470547687
22213,Arlington,VA,1099356.7603325157,38.8952034,-77.1624573,East Falls Church,1136.94,11632.56,0.06878817580394168,0.13067364509943036,0.278459449217774,0.6090587845687757,0.0262686129004911
20707,Laurel,MD,411490.8688364676,39.0993778,-76.8827661,Greenbelt,10128.74,25644.36,0.031434656955752115,0.0807574371970142,0.2966280942766599,0.6875047414462427,0.01645808247962894
20003,Washington,DC,844935.4665539683,38.881904,-76.9909349,Eastern Market,453.79,3697.43,-0.01981863512484267,-0.0592886962808462,0.04371966816429912,0.20180370176649035,0.018568266559499207
22960,Orange,VA,312972.331239644,38.2189958,-78.0733387,Washington Dulles International Airport,98309.12,118174.83,0.06277793884558955,0.17792044187946832,0.5493468406193627,0.9069589739364866,0.028291877391637632
20135,Bluemont,VA,606207.1406247449,39.0949392,-77.8649016,Ashburn,33747.41,75548.35,0.0594737074697195,0.15512319097309202,0.4868523297092461,0.6177630749253533,0.032198374404156
20155,Gainesville,VA,740945.3131637688,38.8101139,-77.6177887,Washington Dulles International Airport,21862.7,51995.66,0.07577276120241506,0.15202746747778692,0.4777130524158595,0.6720912203150698,0.02379479372079098
20868,Spencerville,MD,771192.4359344543,39.1263949,-76.969321,Glenmont,10217.2,25866.09,0.051610092586573286,0.10189241375894655,0.3232359736982853,0.41261685196644765,0.022583756008824583
21710,Adamstown,MD,657775.4012298327,39.2970822,-77.4483019,Shady Grove,31379.16,57280.99,0.054367288309921595,0.1208376470223458,0.413337730778269,0.5934167830445299,0.021885685556803453
20710,Bladensburg,MD,320570.6171146726,38.9423683,-76.9259104,Cheverly,3013.86,10107.59,0.023179104962323546,0.039606181125181786,0.224927412674666,0.881252335541669,0.020107134013004128
20603,Waldorf,MD,478645.7065694875,38.6303898,-76.9765834,Huntington,20092.09,30123.56,0.03534339024490525,0.07496498405829509,0.3593051011481416,0.6638880511467403,0.0206033847885864
20607,Accokeek,MD,540738.5552295726,38.6726657,-77.0185489,Huntington,14345.15,25103.37,0.02651537057795299,0.04893532421897548,0.2914546552870178,0.5859505709258562,0.021370452181642713
22851,Stanley,VA,261935.43885644135,38.563053,-78.512907,Ashburn,101269.04,134080.63,0.07304090121086855,0.22628614326504704,0.6936491728677814,1.1539646418585259,0.022706463973311154
22749,Woodville,VA,667189.7205142146,38.6196553,-78.1802355,Ashburn,73479.68,104593.49,0.023925766213083264,0.08619037253606941,0.3397470710917237,0.5086266680406487,0.042401482936468476
20782,Hyattsville,MD,433284.93777797854,38.965814,-76.9662592,Hyattsville Crossing,873.29,9217.65,0.029489943255019288,0.040902892521756926,0.21549256133237482,0.7145912867297419,0.020680592928758977
22611,Berryville,VA,534754.6119842785,39.1688824,-77.9846131,Ashburn,46281.5,87924.97,0.06426509422870973,0.14875509900288855,0.4616184235145529,0.6988372138838496,0.024453208460363383
22727,Madison,VA,383339.27390723256,38.4075939,-78.2952919,Washington Dulles International Airport,95512.84,122822.98,0.06815905098064069,0.1510102319558555,0.5049772421631716,0.8404894860323517,0.02797613896469346
20615,Saint Leonard,MD,459019.8562112799,38.4162307,-76.5483473,Branch Ave,55542.71,67887.52,0.041533692127891465,0.07087706797193948,,,0.013429420441361906
22701,Culpeper,VA,425113.1393150459,38.4387767,-77.9962612,Washington Dulles International Airport,74615.73,98365.62,0.05350190418437898,0.14964164609010294,0.4953244568342609,0.8687237788038225,0.021834009059136596
22060,Fort Belvoir,VA,797958.2408125788,38.6934405,-77.153084,Franconia-Springfield,8196.71,25223.74,0.048721324034411324,0.1300346992178479,0.32363244283421666,0.4295612182465566,0.01821208185390726
20106,Amissville,VA,562687.2437612497,38.6934138,-78.0025055,Washington Dulles International Airport,56190.22,87464.23,0.07623750935940406,0.1797570433314425,0.5051931876561552,0.7614356916664986,0.020462832155550947
22715,Brightwood,VA,379428.6192957017,38.4106964,-78.1855991,Washington Dulles International Airport,88153.14,114201.64,0.0745084713736216,0.14660073597864876,0.5225962279256945,0.8928989967720278,0.028628517911952745
20016,Washington,DC,1159154.8077035483,38.9370927,-77.0911589,Tenleytown-AU,1554.47,6954.7,0.030654823085769677,0.050100751513140696,0.24276575924733534,0.44830684189264364,0.026033078706245882
20712,Mount Rainier,MD,451312.1165244553,38.9423613,-76.9645782,West Hyattsville,1470.99,7362.01,0.018415878437288563,0.014811793906970792,0.1891990653069404,0.7798846885260425,0.022849318340782607
20685,Saint Leonard,MD,448856.313649693,38.434862,-76.5267062,Branch Ave,54973.75,67457.41,0.06496410442344935,0.10059496044212775,0.32867086560479714,0.521958125773924,0.019997409445983712
20632,Faulkner,MD,488132.3141881866,38.4327994,-76.9579926,Franconia-Springfield,41344.58,52118.28,0.05105473752889082,0.0818052640847001,,,0.013591801794643253
20010,Washington,DC,712962.4176546239,38.9333665,-77.0303116,Columbia Heights,563.82,3903.58,-0.026496455566770716,-0.07031635243860228,0.03935290220460901,0.2361860632724205,0.01986921674678796
20732,Chesapeake Beach,MD,440230.4814946347,38.6551422,-76.5425676,Branch Ave,37316.48,50025.49,0.03545919907577451,0.10925154742388596,0.33270053357561363,0.49912437025297235,0.01692068277832583
22734,Remington,VA,420324.8868171633,38.5261852,-77.7945637,Washington Dulles International Airport,56431.97,78323.67,0.07419279593892973,0.15980182063477558,0.45059316367622676,0.8618346242112068,0.020635413074463895
22125,Occoquan,VA,556360.9334590302,38.6819,-77.2622191,Franconia-Springfield,12385.51,31476.32,0.055085227949736616,0.14212062713557427,0.3714127780876047,0.5547525853929923,0.015421302322255217
20001,Washington,DC,659379.3319437047,38.9103532,-77.0177386,Shaw-Howard U,479.59,1612.17,-0.03011563916298089,-0.08160443470229463,-0.043130893845231735,0.02838387263744001,0.015062165271075003
20812,Glen Echo,MD,1315162.7237080575,38.9670408,-77.1438813,Bethesda,4684.92,12598.26,0.06334988220192052,0.09348892406584748,,,0.021719520250811565
22508,Locust Grove,VA,409703.02663258207,38.3131871,-77.7984717,Franconia-Springfield,74403.02,93348.79,0.043743849493459906,0.11081745693062606,0.5061583893087876,0.7978654046761838,0.02746697719428543
20774,Upper Marlboro,MD,462672.6360279705,38.8745431,-76.7741529,Downtown Largo,6783.72,22138.06,0.025369248572691613,0.07004296054369459,0.3204874606564548,0.6863461721780116,0.019346980929389145
20876,Germantown,MD,487081.0343130955,39.2083835,-77.2371518,Shady Grove,11651.64,38918.96,0.04569300074043058,0.11725607363218334,0.3253403241344103,0.5247853454772692,0.016822631560041153
20166,Sterling,VA,619020.8382747174,38.9865095,-77.4559092,Loudoun Gateway,740.64,38277.06,0.06058605735442342,0.14391710488647153,0.3911025012385499,0.5937813376752429,0.020573868201694726
20688,Solomons,MD,459509.84007337264,38.3271346,-76.4641828,Branch Ave,67864.84,80213.58,0.060646964491907394,0.10702955584317707,0.3198878290261573,0.3669292850380759,0.01650984148923698
20148,Ashburn,VA,891964.0893436897,38.9952344,-77.5223408,Ashburn,2886.89,44079.84,0.06461417892204935,0.12863811744823964,0.42663412324181355,0.5968639125305326,0.024675106765935446
20147,Ashburn,VA,753517.4932021542,39.0419474,-77.4781301,Ashburn,4238.21,42056.76,0.0626855919435383,0.15969822114691326,0.42036506869022244,0.6373925115345658,0.021740042585074094
22709,Aroda,VA,399037.4813753332,38.3287309,-78.2137367,Washington Dulles International Airport,96345.91,120923.87,0.0852811214463877,0.18179245612752198,0.5270698793708601,0.8316948180473261,0.030034251807492696
22182,Vienna,VA,1224190.832966109,38.9374763,-77.2731723,Spring Hill,2847.38,21645.3,0.08347954673368989,0.1618810589274246,0.3679492719285066,0.4697563008168948,0.02603782555059894
20855,Derwood,MD,697047.4943422123,39.1376326,-77.1320205,Shady Grove,3460.81,28085.88,0.05009305020608774,0.09954583931686471,0.28913838386901797,0.44110247646588857,0.02048449812235861
22972,Somerset,VA,305344.5093294482,38.215776,-78.2302847,Washington Dulles International Airport,106734.17,129176.66,0.006704232352460657,0.060303265252685014,0.37596997430077905,0.5547010959623103,0.03889432971698888
20783,Langley Park,MD,400810.4385979944,38.9997571,-76.9706976,Hyattsville Crossing,4034.19,12324.99,0.028886626136683354,0.05612523693862137,0.22072153154823382,0.7720252459286688,0.02065060082390058
22039,,VA,1159634.3610849434,38.7560698,-77.3139694,Franconia-Springfield,12636.87,29383.15,,,,,
20657,Lusby,MD,353292.47560443496,38.3797571,-76.4428828,Branch Ave,64310.41,76864.11,0.05652848758872667,0.1144022663681545,0.39126731088863986,0.580293673014431,0.018674494049126366
22043,Falls Church,VA,912015.447414753,38.9008522,-77.1959091,West Falls Church,564.15,14524.58,0.0690999696078088,0.1501137889349597,0.3171424877577311,0.5206914213501279,0.02402832776193267
22066,Great Falls,VA,1633353.171350376,39.0120489,-77.3025663,Wiehle-Reston East,7853.92,26892.87,0.08641886659297755,0.18656245108806954,0.5131319460583603,0.5164394156381199,0.028054643757672738
20184,Upperville,VA,1205807.5602574532,39.0006706,-77.8837541,Ashburn,33895.75,74864.04,0.08250921825641182,0.13185991542526074,0.48501224795283643,0.44506887900131,0.035929589446475375
20903,Silver Spring,MD,516951.1168681852,39.0221788,-76.9846774,Forest Glen,5090.43,14276.84,0.04768312384218193,0.07564878745791571,0.25597305884096533,0.5812237764039083,0.024322096490908225
20009,Washington,DC,585578.7272695679,38.9191435,-77.0373808,U Street/African-Amer Civil War Memorial/Cardozo,787.81,2452.58,0.0015476440904478711,-0.016895330957248822,0.03237484570665281,0.15178697096615312,0.012159599518620516
22311,Alexandria,VA,705415.824652547,38.8336078,-77.1254323,Van Dorn Street,3842.21,11079.88,0.05434836155503411,0.11152311216672624,0.2767293520461664,0.5062311698712567,0.022041322086557038
22551,Spotsylvania,VA,428712.05433435366,38.1698379,-77.700023,Franconia-Springfield,80840.54,99884.33,0.048256691664209775,0.16460142641061073,0.48674621570512544,0.8345207397794996,0.026574032948047135
20784,Landover Hills,MD,373045.85573360504,38.9505468,-76.8917196,New Carrollton,1722.71,13150.45,0.03660847021706392,0.05839511078023294,0.2836338821809032,0.8700759311315579,0.021307583973795445
22302,Arlington,VA,456397.1028265264,38.8278875,-77.0831325,Braddock Road,2975.79,9165.73,0.02491780702900698,0.024329739106600638,0.12463181614744051,0.30779253657580896,0.014908335240618045
21780,Sabillasville,MD,381077.0642298406,39.6774173,-77.4655819,Shady Grove,67168.94,94460.98,0.08510519565649262,0.14766388162101599,0.41574955469250774,0.7503082840030587,0.0248157648831037
20896,Garrett Park,MD,1074416.5669693751,39.0353824,-77.092454,Grosvenor-Strathmore,1224.59,16226.24,0.058474692505687466,0.090232433087289,0.28006993310115397,0.43172486694925455,0.02531652030228198
20852,Rockville,MD,583287.5614588632,39.0519284,-77.1220399,North Bethesda,882.33,18914.37,0.055700306304791704,0.06830328399630668,0.1742456055041326,0.22932232479715414,0.01684522036055161
22124,Oakton,VA,1058990.5375889528,38.8929969,-77.3325535,Vienna/Fairfax-GMU,5546.59,26354.69,0.07166264001261752,0.14585784296702073,0.36698347675436993,0.46505312128185655,0.02691016387448103
20715,Bowie,MD,483635.8862809312,38.9893926,-76.7413308,New Carrollton,12223.65,26789.2,0.03318398534505242,0.08565684124668853,0.3468502251408187,0.6242594114302256,0.021480791471653715
22720,Goldvein,VA,601847.8001261661,38.4759478,-77.641881,Franconia-Springfield,52252.18,71018.41,0.07319981874220981,0.14643056932471082,0.4525201017551203,0.769524224186114,0.023488159844204864
22738,Aroda,VA,399661.4690776115,38.2939307,-78.2809313,Washington Dulles International Airport,103197.57,127946.34,0.08362289729276239,0.18088995733045646,0.5222924006440842,0.8280232090577536,0.031186089183172356
20850,Rockville,MD,723352.5383034283,39.0913903,-77.1821972,Rockville,3188.91,25265.1,0.05813699548798052,0.12099858062835857,0.24981088010021035,0.34535131571920225,0.017310513273887343
20874,Germantown,MD,425283.53673311864,39.1300307,-77.2985477,Shady Grove,11582.69,34783.7,0.03653382403339137,0.11451405170431386,0.3100661418241642,0.5236520254488234,0.016290531197525184
22627,Flint Hill,VA,622200.8821419069,38.7574545,-78.1442256,Ashburn,62858.65,97943.55,0.07518467194156432,0.19809749005293653,0.4917170200835713,0.6530795608608639,0.032580410898272086
20602,Waldorf,MD,384637.2522261107,38.5833937,-76.894551,Branch Ave,27130.16,36882.24,0.03575282240542037,0.08524722509816235,0.3717752823803539,0.7692399709834695,0.01907287758739486
20816,Bethesda,MD,1356616.5606064147,38.9569499,-77.1200056,Friendship Heights,2973.06,10282.61,0.05519141985603919,0.10262815996020394,0.35399057443570897,0.4309685659222561,0.027902013566744693
20904,Silver Spring,MD,589885.2651166003,39.0666045,-76.9809353,Glenmont,6280.79,19153.15,0.05818838875088159,0.10721628680494645,0.30964538507080025,0.5791390855178195,0.021613174967804426
22192,Woodbridge,VA,520508.2300738239,38.6836989,-77.3146732,Franconia-Springfield,15625.42,34443.02,0.06278575876988625,0.16214003420699818,0.4138219362135617,0.6817856370178534,0.018640015046615964
20880,Washington Grove,MD,650806.419009454,39.1397262,-77.1735575,Shady Grove,2335.57,29640.66,0.04350270014616458,0.1393908827230753,0.3098603474503096,0.47652976309776984,0.023480051014003474
20151,Chantilly,VA,775975.5186491064,38.8965237,-77.4451413,Washington Dulles International Airport,6594.58,36091.29,0.06014271572244208,0.15905659860017665,0.39614832634535724,0.6153730368648875,0.023467036922817524
22203,Arlington,VA,656429.8856047317,38.8736915,-77.1173397,Ballston-MU,1046.14,8194.59,0.03055830563024018,0.010003067054449415,-0.004371924466897172,0.20561646428344157,0.02155159483178562
20018,Washington,DC,575198.3081944374,38.9265762,-76.9744461,Brookland-CUA,1889.54,5606.52,-0.03375832997196727,-0.06376574474424358,0.09447775870425806,0.48380043840164616,0.02721305299282553
22640,Huntly,VA,581006.0599533968,38.8120153,-78.1421189,Ashburn,60254.81,96939.81,0.06698008962085776,0.18418315659961176,0.4686041098303046,0.6006159573427169,0.03134836115428732
20625,Cobb Island,MD,351313.147701819,38.2622235,-76.84727,Huntington,62352.43,72454.34,0.056836376490700356,0.13098701006701366,0.39654055824708506,0.5656076916048512,0.01938404820898039
20020,Washington,DC,381689.9161071035,38.8604134,-76.9789328,Anacostia,1458.97,5988.6,-0.03226162269269029,-0.048597464439587915,0.10846132582931113,0.6595372037482284,0.026732048385362184
22046,Falls Church,VA,1046653.8842379674,38.8863344,-77.1809752,West Falls Church,1752.67,13297.59,0.07939858825587422,0.15414196203021727,0.3378510992374559,0.5201541026238837,0.02165173343602057
20770,Greenbelt,MD,281400.8518766154,39.0029849,-76.8791651,Greenbelt,2922.5,17359.77,0.030602878965537834,0.08259432869556456,0.25470135122722865,0.5716923114025269,0.013027334319492864
22204,Arlington,VA,626200.4214074995,38.8607849,-77.098984,Virginia Square-GMU,2546.09,7419.81,0.043438608226495395,0.09257990992263912,0.19111110164871237,0.4588857311972441,0.022033856123104954
22305,Alexandria,VA,799612.3167343531,38.8365078,-77.0621397,Potomac Yard,1410.09,7476.66,0.044800008131552035,0.07917820236007005,0.2298263504609461,0.5413677175839738,0.02135934709172423
22718,Elkwood,VA,440710.6754235342,38.477181,-77.8274601,Washington Dulles International Airport,62571.3,83703.49,0.040537731797844354,0.15284285018148153,0.4491943667346961,0.7270979294385262,0.02774146057797374
20744,Fort Washington,MD,440323.3535836008,38.758348,-76.9837862,King St-Old Town,8577.02,16028.7,0.034327644104904964,0.05891861678297728,0.29708550776415155,0.6741082051270558,0.021571075810481722
22030,Fairfax,VA,808508.311990626,38.8371379,-77.3404656,Vienna/Fairfax-GMU,7478.78,27885.56,0.07211235961157185,0.16279233357889697,0.3533688592792941,0.5261083283851451,0.021635272715524515
20143,Catharpin,VA,1030375.9548928472,38.8595559,-77.5641433,Washington Dulles International Airport,14670.66,46600.79,0.08099026058424243,0.1753466906513137,0.5117377867644584,0.7119611556171553,0.026498732072368077
20832,Olney,MD,658358.9998603804,39.1506303,-77.0707081,Shady Grove,8818.53,28297.92,0.05716782149845742,0.11286830401577064,0.2866764543126044,0.4257532044123747,0.019781168563815028
22554,Stafford,VA,556010.9184921643,38.4267643,-77.3766456,Franconia-Springfield,41836.03,60539.27,0.05862234335724052,0.13412444867559234,0.4516128899104805,0.6989008706115108,0.021381256730052194
22663,White Post,VA,456633.61481704825,39.0547399,-78.1106036,Ashburn,53755.68,95177.78,0.04777327136220582,0.08242177063989684,0.34048335466482704,0.7042805777816058,0.023564198687668108
20169,Haymarket,VA,817637.1317490498,38.8791655,-77.6454485,Washington Dulles International Airport,19077.53,53474.11,0.07108862071016599,0.12471160147980055,0.46964458353495686,0.6263073672035465,0.025034218042372196
20012,Washington,DC,819156.480537443,38.9768729,-77.0326088,Takoma,1285.86,8745.28,-0.005943659388126726,-0.015470437430662617,0.147071669671238,0.43303772386383266,0.02890265745991831
20895,Kensington,MD,811380.408791245,39.0270303,-77.0775385,Grosvenor-Strathmore,2310.85,14938.45,0.05625093897973631,0.11155328042437217,0.2887026025709941,0.416814001416268,0.023755053601159905
22151,Springfield,VA,715040.2214316466,38.8040933,-77.2078041,Franconia-Springfield,5408.48,18759.19,0.05898118282716864,0.154242027416491,0.3378809411823943,0.5961890966619152,0.02527148060398493
22714,Brandy Station,VA,503216.7169689212,38.5196714,-77.8954186,Washington Dulles International Airport,62101.05,86232.26,0.07890959764762202,0.1996639225924233,0.519512857080908,0.8823471767363026,0.02142538480630352
20902,Silver Spring,MD,546238.5341464886,39.0452485,-77.0392638,Wheaton,1264.13,16368.08,0.04838973637826625,0.08383053980591362,0.2649221381302644,0.49464570761200066,0.021940024270591912
22180,Vienna,VA,1031859.0475141476,38.8954393,-77.2561334,Vienna/Fairfax-GMU,2382.68,19736.78,0.07687076048747739,0.1537865213462198,0.3283239044161252,0.5105238949397872,0.02499435607775008
20720,Bowie,MD,574536.735590066,38.9827801,-76.7858241,New Carrollton,8422.24,22962.86,0.032845577078342146,0.07765666139021979,0.33778381284701103,0.5983681181619581,0.01883842365256826
22003,Annandale,VA,761728.2461126256,38.8298165,-77.2153177,Dunn Loring-Merrifield,6031.84,17909.24,0.06279539888966582,0.14975228346786415,0.3303687955650427,0.5496173813273322,0.025948086095222297
22025,Dumfries,VA,574854.1434193142,38.5924178,-77.3468662,Franconia-Springfield,24739.2,43830.56,0.062066194931427725,0.15559376014936566,0.4288449029211782,0.6650336461959654,0.020478552213098498
21778,Rocky Ridge,MD,438525.7613861077,39.6158977,-77.3343033,Shady Grove,57050.8,84035.38,0.0881082758584847,0.1879188667831879,0.490740918654113,0.7141140748851074,0.020320941335881446
20772,Upper Marlboro,MD,470473.79459171795,38.7802798,-76.7669781,Branch Ave,13608.72,26147.73,0.021039441271678186,0.06022251756452665,0.32246723197838595,0.6569199703805314,0.019643980453634108
22747,Washington,VA,633303.9715257107,38.7090557,-78.1656739,Ashburn,67024.74,100795.7,0.06940429183063009,0.2077224418510816,0.46554448493582473,0.6056750818602784,0.03416100902261838
22026,Dumfries,VA,579289.9859261583,38.5608503,-77.2960992,Franconia-Springfield,25361.2,44140.85,0.06038935734409627,0.1237930392725099,0.40260909908761205,0.6736402499105401,0.01916512323197567
20737,East Riverdale,MD,396955.6665391873,38.9642651,-76.9135381,College Park-U of Md,2042.39,12328.52,0.03582296907957282,0.07214801981696187,0.28214285811457224,0.853856271669645,0.020573904188425342
20912,Takoma Park,MD,680502.4808280085,38.9815963,-77.0011301,Takoma,1593.6,9550.98,0.042179586541068174,0.0611507695421748,0.2529061715352436,0.4802929886423842,0.025068641113065122
22407,Fredericksburg,VA,445460.54384083505,38.2834738,-77.5756842,Franconia-Springfield,64289.91,83299.49,0.05501249868404932,0.1538855345177468,0.4976040427800658,0.7966567222028724,0.02008079003310109
20866,Burtonsville,MD,464578.0330280032,39.109331,-76.9338521,Greenbelt,11101.06,24838.28,0.047674088245719275,0.11195290916602721,0.29908079041332025,0.553155092667793,0.01689387601460041
20693,Welcome,MD,496947.87696908606,38.4570678,-77.089581,Franconia-Springfield,35048.51,49352.54,0.0499097633583475,0.11327229247787683,0.39814034564865164,0.6096151796959731,0.01916007429718783
21704,Frederick,MD,646749.6781234224,39.3547629,-77.3756589,Shady Grove,31810.38,58949.04,0.049323136622718144,0.12036928380953178,0.40557633017370437,0.5224208918779462,0.021287940423182744
20639,Huntingtown,MD,583227.8929574307,38.6072782,-76.6097837,Branch Ave,35846.74,48611.04,0.04138665772698008,0.06147608231206301,0.27734657361631787,0.473747934125465,0.0189888318858641
20714,North Beach,MD,395423.2999055058,38.7236885,-76.5527478,Downtown Largo,32071.81,45533.92,0.03394538512657285,0.14451729181134995,0.390465475895258,0.6997403073764521,0.016884263285325322
20854,Potomac,MD,1282066.5982313568,39.0329948,-77.2223122,Rockville,8681.71,22499.99,0.06954326274008656,0.1471769492431791,0.37503629981812153,0.3928239061480806,0.02457609261537533
20646,La Plata,MD,473610.33170613815,38.5232576,-77.0029859,Franconia-Springfield,30605.43,41760.03,0.04118429675950286,0.07784687895924328,0.3191042360870181,0.4914576256267222,0.018585242184923093
20878,Gaithersburg,MD,724845.8217955707,39.115209,-77.2516098,Shady Grove,7496.27,30898.23,0.04989819854599311,0.12111243399529992,0.29228267219563897,0.3996243775897949,0.018243039233250897
22406,Fredericksburg,VA,557961.866643333,38.3992445,-77.5440087,Franconia-Springfield,52229.89,71320.98,0.059290097161473015,0.13051276128906697,0.4586891310801863,0.684266559183345,0.021910038704489595
22740,Sperryville,VA,516041.62552280613,38.6456898,-78.2869532,Ashburn,79665.54,112689.02,0.055062619119478635,0.1498567389321897,0.4372453235044849,0.6015425945966039,0.026405084048116312
20121,Centreville,VA,566148.3789513618,38.8110588,-77.4632373,Washington Dulles International Airport,16145.62,38908.21,0.06765123030353196,0.18403638125285052,0.39152836797017665,0.6473011745925339,0.018175484819715634
20176,Leesburg,VA,817414.1808296187,39.1847063,-77.5441108,Ashburn,20460.34,54774.19,0.06268201802413437,0.1586411014385466,0.46427333882873706,0.6922461853300924,0.023610154637726498
22736,Fredericksburg,VA,448979.6320194555,38.3981652,-77.704567,Franconia-Springfield,61991.02,80893.94,0.07548107513038345,0.22821242019185792,0.5742590322721532,0.9263482871828331,0.023492757866123096
20187,Warrenton,VA,697743.3846371564,38.7228715,-77.7480453,Washington Dulles International Airport,36679.72,65358.86,0.06583042417382044,0.14032054022768356,0.45719456573576284,0.6921576127852211,0.02482851767178926
22102,McLean,VA,816149.3298499432,38.949956,-77.2291524,Spring Hill,2553.76,18316.39,0.05224543641408389,0.10203538236742281,0.20322246795944768,0.25705091594966234,0.01964638986442652
20882,Gaithersburg,MD,794367.5383841865,39.2391217,-77.1510705,Shady Grove,13319.47,39356.18,0.05855517649172784,0.10083277726512009,0.3599071019843153,0.4698404271632478,0.02412789652539305
22724,Jeffersonton,VA,617008.7392692438,38.6146452,-77.8939812,Washington Dulles International Airport,54149.68,81437.43,0.07369927304017379,0.16946697993329363,0.5195728084866623,0.8313347865312358,0.021081539690386685
22312,Lincolnia,VA,634972.4152187244,38.815789,-77.1542714,Van Dorn Street,2836.77,14266.81,0.054145970536833815,0.13909284001339242,0.31722380007245277,0.5588331185199849,0.021133610780290035
20132,Purcellville,VA,863240.9769207643,39.1662433,-77.7193885,Ashburn,26591.0,66730.38,0.08046678396034088,0.17668597914198136,0.4936094867275321,0.775148555883102,0.023509233470718163
20608,Aquasco,MD,401490.4901559079,38.5824048,-76.7009977,Branch Ave,32792.55,45151.9,0.02907978369705802,0.06150206270972881,0.2742468051319726,0.67015204667654,0.024260290950034676
20011,Washington,DC,647473.6029168954,38.9525135,-77.0229909,Fort Totten,1801.96,6044.11,-0.03526895152712406,-0.06928596151914371,0.07017677480385161,0.3973676341192102,0.02683800743325997
20706,Lanham Seabrook,MD,434059.3513154816,38.9658795,-76.8510911,New Carrollton,2722.47,17055.25,0.037786061310894264,0.07029265719142133,0.29817282946161466,0.7354892933230952,0.02070474491161382
22181,Vienna,VA,1097427.9033774512,38.9066515,-77.2933878,Vienna/Fairfax-GMU,3733.19,22975.17,0.08796374397074186,0.18649831770551237,0.3822778862511963,0.5226914699682368,0.025032777922862064
22150,Springfield,VA,671400.2943209466,38.7728635,-77.1865229,Franconia-Springfield,1709.5,19566.39,0.05948268973066908,0.1406099336996873,0.3314040839436217,0.5732168683382327,0.02292292890509332
22716,Castleton,VA,575557.46194564,38.629259,-78.1040192,Washington Dulles International Airport,67448.66,97963.85,0.05033327912124242,0.17197339918703494,0.47126000916344335,0.6375949594704059,0.03340421200741191
20004,Washington,DC,447394.7340518975,38.894888,-77.0286354,Federal Triangle,130.85,382.56,-0.014359558898127662,-0.049161994824493814,-0.06661063612276914,-0.07754565301489061,0.010260265984216055
20871,Clarksburg,MD,646001.4196655643,39.261341,-77.2825473,Shady Grove,18719.0,45955.99,0.038105523571699586,0.09538429039732284,0.3280043487144743,0.43110817346414493,0.019641175369994095
20190,Reston,VA,549437.131515945,38.9593221,-77.3392985,Wiehle-Reston East,1288.68,27761.15,0.06382360785016812,0.15031450973309474,0.26317976218277706,0.31689346514772004,0.015186614524123985
20144,Delaplane,VA,922662.532556074,38.9229905,-77.9469426,Ashburn,40422.94,79548.8,0.048580696127443465,0.08067672725296585,0.4291182009672426,0.5269058129202225,0.0320963995096891
20186,Warrenton,VA,572677.5860964971,38.6981628,-77.8513937,Washington Dulles International Airport,45175.2,74737.13,0.061835766952644915,0.13791294755193978,0.4192115833008397,0.6897667190487484,0.020970602475977564
20746,Suitland-Silver Hill,MD,334226.51445819676,38.8364025,-76.918265,Branch Ave,1173.15,11738.73,0.020480622638720802,0.03027279166432844,0.22866346411233698,0.746585445195835,0.019665403577881612
20910,Silver Spring,MD,672891.6988247284,39.0028825,-77.0366069,Silver Spring,1104.28,11651.96,0.03675360822949986,0.05615754991533735,0.21780960550308165,0.37615110165711185,0.024243599248156472
20197,Waterford,VA,1251286.1276706185,39.1954539,-77.6278178,Ashburn,24196.09,61432.44,0.09071032621062153,0.21829548591602188,0.6231319582055331,0.780257245989671,0.027403738662862893
20906,Silver Spring,MD,444801.78762361617,39.087321,-77.057159,Glenmont,2865.81,21167.36,0.04175443918125908,0.08146872394923016,0.2296588764751939,0.5140091374321116,0.016406669712076355
22304,Alexandria,VA,443696.4824011979,38.8131405,-77.1121255,Van Dorn Street,2155.84,11942.06,0.03800916351341438,0.09562502507392318,0.20730152101284746,0.41253566394812013,0.01388285260875961
20905,Silver Spring,MD,685094.3602990416,39.1096454,-76.9884778,Glenmont,7734.04,23748.28,0.05285403133795945,0.09621112255947104,0.31239226439593765,0.5079555336058851,0.023223666411616672
20017,Washington,DC,552970.1844711873,38.9381879,-76.9921262,Brookland-CUA,589.21,5418.01,-0.035992337889875825,-0.08743370810430898,0.05416665430434145,0.3977714080046992,0.02540334385247827
20716,Bowie,MD,441287.99264748726,38.9264277,-76.715028,Downtown Largo,11592.26,27267.33,0.030523144428600244,0.08697392734866556,0.3281929704317493,0.6968116693457095,0.018221352068120852
22742,Sumerduck,VA,489448.608485834,38.4663324,-77.7150723,Franconia-Springfield,57998.47,76569.31,0.0643303233399353,0.15850518658283755,0.43165360168351363,0.7674221762615158,0.023846338125953236
22553,Fredericksburg,VA,394600.0294731259,38.272028,-77.6477882,Franconia-Springfield,68957.02,88037.73,0.03039174087258658,0.0635574477628168,0.059788248791159085,-0.03356916448042635,0.023506846434149235
20002,Washington,DC,645380.0602454763,38.9050256,-76.9836072,NoMa-Gallaudet U,1695.47,3921.98,-0.03222628350983675,-0.09232726075877952,-0.015034738327153196,0.2501229761765109,0.018573526298782502
22202,Arlington,VA,796395.6760704747,38.8568345,-77.0514843,Crystal City,131.52,5035.87,0.03585524280809072,0.05117221532695155,0.14360020607879415,0.3692599723953145,0.019437375819094167
20110,Manassas,VA,503863.6185762381,38.7475611,-77.484727,Washington Dulles International Airport,23369.0,42962.54,0.07100260168249306,0.18596840733160921,0.45016925744135405,0.740032788098315,0.02105129901118907
22205,Arlington,VA,1156059.512995677,38.8835133,-77.1395237,East Falls Church,1549.75,9782.78,0.07521513845430686,0.14326094706325498,0.2861336966511792,0.521029133271655,0.027331071657038714
20006,Washington,DC,248130.71134834815,38.8986133,-77.0414677,Farragut West,332.51,1157.42,-0.028688824049938777,-0.031916346519226264,-0.0625923743364688,0.015776843547779244,0.011572762157644757
22401,Fredericksburg,VA,457709.16493800463,38.2992718,-77.4866583,Franconia-Springfield,58815.74,77619.36,0.04843757297574874,0.12574053362891746,0.3721323228848217,0.6232322874268902,0.01914896858195372
20171,Herndon,VA,817230.990299149,38.924038,-77.3964793,Herndon,3346.45,32001.57,0.058417120043984354,0.13444849293878958,0.3330441379866116,0.47569740649901404,0.0229129105830595
21798,Woodsboro,MD,502318.01368798193,39.5365106,-77.3026026,Shady Grove,47823.4,74801.8,0.05980098317818993,0.15436478163156725,0.4363342445834927,0.6440845171952968,0.019662850174534386
22206,Arlington,VA,560895.5870537183,38.8439166,-77.089408,Pentagon City,3350.84,8046.31,0.05038286247352465,0.0774649606046845,0.16667267943063308,0.4064615290483312,0.01601587179622916
20124,Clifton,VA,1004578.559878699,38.7813316,-77.3913325,Vienna/Fairfax-GMU,14914.62,34042.32,0.07448608980132063,0.1520786903388671,0.4037090840146076,0.547634635288656,0.02489278344794934
20019,Washington,DC,373068.6973265366,38.8914117,-76.9435754,Benning Road,468.74,7354.95,-0.02866790242956524,-0.055164230813034676,0.08916163326804927,0.7344897282367788,0.025982575761969235
20015,Washington,DC,1391789.067923114,38.9668893,-77.058323,Friendship Heights,2486.0,8062.08,0.03000807276225747,0.06411083513493852,0.29333275032160955,0.45459693652116123,0.029868766238335533
